[
  {"id":"wuppertal","name":"Wuppertal","aliases":["Ennepetal","Schwelm","Gevelsberg"],"latitude":51.2562,"longitude":7.1508,"radiusMeters":18000,"transitRadar":{"adapter":"dbRegioBusNRW","region":{"minimumLongitude":7.0,"minimumLatitude":51.2,"maximumLongitude":7.3,"maximumLatitude":51.32}}},
  {"id":"berlin","name":"Berlin","aliases":[],"latitude":52.5200,"longitude":13.4050,"radiusMeters":30000,"transitRadar":{"adapter":"vbb","isEnabled":true,"region":{"minimumLongitude":13.0884,"minimumLatitude":52.3383,"maximumLongitude":13.7612,"maximumLatitude":52.6755}}},
  {"id":"cottbus","name":"Cottbus","aliases":["Chóśebuz"],"latitude":51.7563,"longitude":14.3329,"radiusMeters":25000,"transitRadar":{"adapter":"vbb","isEnabled":true,"region":{"minimumLongitude":14.05,"minimumLatitude":51.60,"maximumLongitude":14.62,"maximumLatitude":51.92}}},
  {"id":"darmstadt","name":"Darmstadt","aliases":[],"latitude":49.8728,"longitude":8.6512,"radiusMeters":18000,"transitRadar":{"adapter":"ivantoMQTT","agency":"heag","isEnabled":true,"region":{"minimumLongitude":8.35,"minimumLatitude":49.6,"maximumLongitude":9.05,"maximumLatitude":50.2}}},
  {"id":"hamburg","name":"Hamburg","aliases":[],"latitude":53.5511,"longitude":9.9937,"radiusMeters":25000},
  {"id":"munchen","name":"München","aliases":["Muenchen","Munich"],"latitude":48.1351,"longitude":11.5820,"radiusMeters":23000},
  {"id":"koln","name":"Köln","aliases":["Koeln","Cologne"],"latitude":50.9375,"longitude":6.9603,"radiusMeters":18000},
  {"id":"dusseldorf","name":"Düsseldorf","aliases":["Duesseldorf"],"latitude":51.2277,"longitude":6.7735,"radiusMeters":18000},
  {"id":"essen","name":"Essen","aliases":[],"latitude":51.4556,"longitude":7.0116,"radiusMeters":18000,"transitRadar":{"adapter":"ivantoMQTT","agency":"evag","isEnabled":true,"region":{"minimumLongitude":6.72,"minimumLatitude":51.28,"maximumLongitude":7.25,"maximumLatitude":51.58}}},
  {"id":"mulheim-an-der-ruhr","name":"Mülheim an der Ruhr","aliases":["Muelheim an der Ruhr"],"latitude":51.4275,"longitude":6.8825,"radiusMeters":14000,"transitRadar":{"adapter":"ivantoMQTT","agency":"evag","isEnabled":true,"region":{"minimumLongitude":6.72,"minimumLatitude":51.28,"maximumLongitude":7.25,"maximumLatitude":51.58}}},
  {"id":"duisburg","name":"Duisburg","aliases":[],"latitude":51.4344,"longitude":6.7623,"radiusMeters":18000,"transitRadar":{"adapter":"dbRegioBusNRW","region":{"minimumLongitude":6.45,"minimumLatitude":51.25,"maximumLongitude":7.05,"maximumLatitude":51.65}}},
  {"id":"unna","name":"Unna","aliases":["Kamen","Bergkamen","Lünen","Luenen","Werne","Selm","Bönen","Boenen","Holzwickede","Fröndenberg/Ruhr","Froendenberg/Ruhr","Schwerte"],"latitude":51.5378,"longitude":7.6897,"radiusMeters":30000,"transitRadar":{"adapter":"ivantoMQTT","agency":"vku","isEnabled":true,"region":{"minimumLongitude":7.25,"minimumLatitude":51.3,"maximumLongitude":8.15,"maximumLatitude":51.85}}},
  {"id":"neuss","name":"Neuss","aliases":[],"latitude":51.2042,"longitude":6.6879,"radiusMeters":12000},
  {"id":"velbert","name":"Velbert","aliases":[],"latitude":51.3406,"longitude":7.0434,"radiusMeters":12000,"transitRadar":[{"adapter":"dbRegioBusNRW","region":{"minimumLongitude":6.93,"minimumLatitude":51.2,"maximumLongitude":7.18,"maximumLatitude":51.40}},{"adapter":"ivantoMQTT","agency":"evag","isEnabled":true,"region":{"minimumLongitude":6.72,"minimumLatitude":51.28,"maximumLongitude":7.25,"maximumLatitude":51.58}}]},
  {"id":"wesel","name":"Wesel","aliases":[],"latitude":51.6587,"longitude":6.6176,"radiusMeters":14000,"transitRadar":{"adapter":"dbRegioBusNRW","region":{"minimumLongitude":6.45,"minimumLatitude":51.55,"maximumLongitude":6.80,"maximumLatitude":51.75}}},
  {"id":"grevenbroich","name":"Grevenbroich","aliases":[],"latitude":51.0910,"longitude":6.5827,"radiusMeters":14000,"transitRadar":{"adapter":"dbRegioBusNRW","region":{"minimumLongitude":6.45,"minimumLatitude":51.00,"maximumLongitude":6.75,"maximumLatitude":51.18}}},
  {"id":"dormagen","name":"Dormagen","aliases":[],"latitude":51.0937,"longitude":6.8420,"radiusMeters":14000,"transitRadar":{"adapter":"dbRegioBusNRW","region":{"minimumLongitude":6.70,"minimumLatitude":51.00,"maximumLongitude":6.98,"maximumLatitude":51.20}}},
  {"id":"viersen","name":"Viersen","aliases":[],"latitude":51.2555,"longitude":6.3965,"radiusMeters":14000,"transitRadar":{"adapter":"dbRegioBusNRW","region":{"minimumLongitude":6.20,"minimumLatitude":51.15,"maximumLongitude":6.60,"maximumLatitude":51.35}}},
  {"id":"munster","name":"Münster","aliases":["Muenster"],"latitude":51.9607,"longitude":7.6261,"radiusMeters":20000,"transitRadar":[{"adapter":"dbRegioBusNRW","region":{"minimumLongitude":7.45,"minimumLatitude":51.83,"maximumLongitude":7.80,"maximumLatitude":52.10}},{"adapter":"stadtwerkeMuenster","isEnabled":true},{"adapter":"ivantoMQTT","agency":"wvg","isEnabled":true,"region":{"minimumLongitude":7.25,"minimumLatitude":51.65,"maximumLongitude":8.2,"maximumLatitude":52.35}}]},
  {"id":"bielefeld","name":"Bielefeld","aliases":[],"latitude":52.0302,"longitude":8.5325,"radiusMeters":18000,"transitRadar":{"adapter":"dbRegioBusNRW","region":{"minimumLongitude":8.35,"minimumLatitude":51.90,"maximumLongitude":8.75,"maximumLatitude":52.15}}},
  {"id":"paderborn","name":"Paderborn","aliases":[],"latitude":51.7189,"longitude":8.7575,"radiusMeters":16000,"transitRadar":{"adapter":"dbRegioBusNRW","region":{"minimumLongitude":8.55,"minimumLatitude":51.60,"maximumLongitude":8.95,"maximumLatitude":51.85}}},
  {"id":"schaumburg","name":"Schaumburg","aliases":["Stadthagen","Bückeburg","Bueckeburg","Rinteln","Bad Nenndorf","Obernkirchen","Nienstädt","Nienstaedt","Lindhorst","Rodenberg","Auetal","Hagenburg","Lauenau"],"latitude":52.3232,"longitude":9.2032,"radiusMeters":45000,"transitRadar":{"adapter":"shgMobil","isEnabled":true}},
  {"id":"frankfurt-am-main","name":"Frankfurt am Main","aliases":["Frankfurt"],"latitude":50.1109,"longitude":8.6821,"radiusMeters":18000},
  {"id":"stuttgart","name":"Stuttgart","aliases":[],"latitude":48.7758,"longitude":9.1829,"radiusMeters":18000},
  {"id":"ulm","name":"Ulm","aliases":["Neu-Ulm","Neu Ulm"],"latitude":48.4011,"longitude":9.9876,"radiusMeters":20000,"transitRadar":{"adapter":"swu","isEnabled":true}}
]
